{
  "type": "FeatureCollection",
  "crs": {
    "type": "name",
    "properties": {
      "name": "urn:ogc:def:crs:OGC:1.3:CRS84"
    }
  },
  "features": [
    {
      "type": "Feature",
      "properties": {
        "latitude": 51.3890,
        "longitude": 35.6892,
        "time": 1,
        "id": "route1",
        "name": "Tehran"
      },
      "geometry": {
        "type": "Point",
        "coordinates": [
          51.3890,
          35.6892
        ]
      }
    },
    {
      "type": "Feature",
      "properties": {
        "latitude": 51.6660,
        "longitude": 32.653,
        "time": 2,
        "id": "route1",
        "name": "Isfahan"
      },
      "geometry": {
        "type": "Point",
        "coordinates": [
          51.6660,
          32.6539
        ]
      }
    },
    {
      "type": "Feature",
      "properties": {
        "latitude": 46.2738,
        "longitude": 38.0962,
        "time": 3,
        "id": "route1",
        "name": "Tabriz"
      },
      "geometry": {
        "type": "Point",
        "coordinates": [
          46.2738,
          38.0962
        ]
      }
    },
    {
      "type": "Feature",
      "properties": {
        "latitude": 36.2605,
        "longitude": 59.6168,
        "time": 4,
        "id": "route1",
        "name": "Mashhad"
      },
      "geometry": {
        "type": "Point",
        "coordinates": [
          59.6168,
          36.2605
        ]
      }
    },
    {
      "type": "Feature",
      "properties": {
        "latitude": 27.5300,
        "longitude": 60.5821,
        "time": 5,
        "id": "route1",
        "name": "Sistan & Baluchestan"
      },
      "geometry": {
        "type": "Point",
        "coordinates": [
          60.5821,
          27.5300
        ]
      }
    }
  ]
}
